NAZWA,LAT,LNG,X,Y,PROPONOWANA LOKALIZACJA,RODZAJ PROJEKTU (DUŻE/MAŁE),INFORMACJA O DOPUSZCZENIU,SUMA GŁOSÓW WAŻNYCH
Drewniany plac zabaw dla dzieci,50.8891808169,20.5759280920,7470162.633,5639408.815,"obręb 0008, działka 237",Małe (do 150 tys.zł),ZADANIE DOPUSZCZONE DO GŁOSOWANIA,393
Budowa schodów i barierki ochronnej dla pieszych z uwzględnieniem ruchu osób niepełnosprawnych w celu połączenia górnej części ulicy Podklasztorna z dolną częścią Podklasztorna ciągiem pieszym,50.8672270559,20.5932068825,7471364.899,5636959.908,"Wzgórze Karczówka, pomiędzy górnym obszarem ulicy Podklasztorna, a dolnym obszarem ulicy Podklasztorna",,ZADANIE ODRZUCONE,
"Budowa krzyża o wysokości ok. 30 m z impregnowanego dębu powlekanego blachą miedzianą lub inną. Jednocześnie sugerujemy, aby do 6 metra od podstawy krzyż był wykonany ze stali nierdzewnej, a pozostała część jw.",50.8653175444,20.5636221170,7469281.113,5636759.387,Brusznia - Białogon,Małe (do 150 tys.zł),ZADANIE DOPUSZCZONE DO GŁOSOWANIA,5078
"Zabudowa małej architektury - ścieżka zdrowia - elementy: kolejka z wagonem, wieża ze zjeżdżalnią, zestaw sportowy (płotki, równoważnie) wieża ze ścianą  wspinaczkową",50.8805000617,20.5834972858,7470689.747,5638440.163,"obręb 008, działka nr 869/16, teren Przedszkola Samorządowego Nr 34 w Kielcach - oddziały przy ul.Szajnowicza Iwanowa 15 północna część działki",Małe (do 150 tys.zł),ZADANIE DOPUSZCZONE DO GŁOSOWANIA,654
Budowa placu zabaw dla dzieci,50.8616337267,20.5873113871,7470946.427,5636340.028,"Przedszkole Samorządowe nr 14 im.Marii Kownackiej, ul.Kalcytowa 15, 25-705 Kielce, nr działki: 408/1, 408/2, 408/3, 408/4, 408/5.",Małe (do 150 tys.zł),ZADANIE DOPUSZCZONE DO GŁOSOWANIA,5101
Bezpieczne przejście dla pieszych przy ul.Raciborskiego 45 i budowa miejsc parkingowych z płyt ażurowych w pasie drogowym tej ulicy,50.8853770515,20.5756062269,7470137.555,5638985.825,"obręb br 0008, działka nr 425/6, ul.Raciborskiego 45 oraz 20",,ZADANIE ODRZUCONE,
Wykonanie siłowni zewnętrznej - terenowej dla młodzieży i dorosłych,50.8827846278,20.6321418285,7474114.231,5638676.112,"nieruchomość przy ul.Wiosennej 3,5,7. Działka nr 1034 obręb 0010 (róg ul.Wiosennej i Jaworowej)",,ZADANIE ODRZUCONE,
Budowa placu zabaw (montaż urządzeń zabawowych i urządzeń do ćwiczeń siłowych) na terenie nieruchomości Nowowiejska 22 i 24,50.8836848853,20.6386542320,7474572.990,5638773.991,nieruchomość przy ul.Nowowiejska 22 i 24. Działka ewidencyjna nr 1041 obręb 0010,,ZADANIE ODRZUCONE,
Remont chodnika przez wymianę płyt chodnikowych betonowych oraz podsypki piaskowej,50.8828252413,20.6394910812,7474631.410,5638678.079,"obręb 010 działki 757/12, 9, 7, 5, 4 od strony osiedla Sady ulicy Warszawskiej - od ulicy Jesionowej do Pocieszka",,ZADANIE ODRZUCONE,
Nowy chodnik na ul.Curie-Skłodowskiej,50.8869270219,20.6120896339,7472705.605,5639144.120,"obręb 0009, działka nr: 285/12, ul.M.Skłodowskiej-Curie po stronie północno-wschodniej na długości o ul.Poprzecznej do ul.Częstochowskiej",Małe (do 150 tys.zł),ZADANIE DOPUSZCZONE DO GŁOSOWANIA,92
Przebudowa placu zabaw i rozbudowa o siłownię zewnętrzną na osiedlu Słoneczne Wzgórze,50.8863584798,20.6521403790,7475523.376,5639066.837,"przy ul.Orzeszkowej 24, nr dz. 275/197, 275/202, 275/200, nr obrębu 0011",Małe (do 150 tys.zł),ZADANIE DOPUSZCZONE DO GŁOSOWANIA,1608
Nowy chodnik na ul.Poprzecznej,50.8880776216,20.6107592583,7472612.672,5639272.602,"obręb 0009, działki nr: 302/1, 302/3, 340/4, 285/12; ul.Poprzeczna po obu stronach od ul.1-go Maja do ul.Górniczej",Małe (do 150 tys.zł),ZADANIE DOPUSZCZONE DO GŁOSOWANIA,73
Budowa przystanku 1 Maja Herbski Most - przystanek w kierunku Herbów za skrzyżowaniem z Jagiellońską,50.8834242862,20.6175076962,7473084.815,5638752.497,"obręb 0009, działki nr: 1641/17, 1641/16; ul.1 Maja 134, po stronie północno-wschodniej",,ZADANIE ODRZUCONE,
Równo pod zegarem - przebrukowanie chodnika przy ul.Paderewskiego,50.8735779888,20.6247389317,7473588.095,5637654.615,"obręb 0016, działka nr: 134/4, na wysokości posesji o adresie: ul.Paderewskiego 43/45 - naprzeciwko skweru im.Ireny Sendlerowej",,ZADANIE ODRZUCONE,
Zielone światło dla osób niewidzących - przystosowanie przejść dla pieszych do potrzeb osób z niepełnosprawnością,50.8716433480,20.6316187978,7474071.244,5637436.974,Miasto Kielce - wszystkie przejścia dla pieszych z sygnalizacją świetlną niewyposażoną w system informacji akustycznej dla niewidomych,Duże (powyżej 150 tys. zł),ZADANIE DOPUSZCZONE DO GŁOSOWANIA,612
"Nowy wspaniały przystanek - budowa kolejnego przystanku autobusowego za 400 tys.zł, w takim samym stylu, jak nowe przystanki - na ul.Grunwaldzkiej róg Jagiellońskiej (w kierunku Ślichowic)",50.8717516764,20.6139403582,7472827.002,5637455.379,"obręb 0015, działka nr 108/7, północna strona ul.Grunwaldzkiej w pobliżu skrzyżowania z ul.Jagiellońską. Przystanek nr 161 ""Grunwaldzka/Jagiellońska""",Duże (powyżej 150 tys. zł),ZADANIE DOPUSZCZONE DO GŁOSOWANIA,156
"Rogatka Krakowska przyjazna dla rowerzystów, pieszych i komunikacji zbiorowej",50.8662384533,20.6290841103,7473889.820,5636836.644,"skrzyżowanie ulicy Seminaryjskiej z ulicą Jana Pawła II oraz z ulicą Wesołą obręb 0017, działki nr 1224/2, 1236/2, 1319/15; obręb 0016, działka nr 592/8, 592/12, 522/6 i sąsiednie działki drogowe",,ZADANIE ODRZUCONE,
Parking wielopoziomowy naszych marzeń - parking przesiadkowo-postojowo-wielopoziomowy przy skrzyżowaniu ul.Grunwaldzkiej z al.Szajnowicza-Iwanowa,50.8800160578,20.5908679962,7471208.141,5638383.424,"okolice skrzyżowania ul.Grunwaldzkiej z al.Szajnowicza-Iwanowa, po stronie południowo-wschodniej, obręb 0009, działki nr 494/3 i 479/27",,ZADANIE ODRZUCONE,
Uspokojenie ruchu na ul.Skłodowskiej-Curie - wyeliminowanie tranzytu przez uliczkę osiedlową przez zastosowanie odpowiednich rozwiązań technicznych i organizacji ruchu,50.8881249986,20.6088924408,7472481.349,5639278.566,"Miasto Kielce: pas drogowy ul.M.Skłodowskiej-Curie między ul.Częstochowską a ul.1 Maja, pas drogowy ul.1Maja oraz ul.Poprzecznej, obręb: 0009, działki 285/11, 285/12, 285/9, 302/1, 302/3, 340/4",,ZADANIE ODRZUCONE,
Bezpiecznie i wygodnie rowerem wokół Osiedla Na Stoku,50.8972949294,20.6715917587,7476897.451,5640277.111,"Pas drogowy ulic: Sikorskiego i Jana Nowaka - Jeziorańskiego obręb: 0007, działka nr 835/2, 844/34, 876/12 - 876/23",,ZADANIE ODRZUCONE,
"Włączenia rowerowe-wjazdy na drogi rowerowe przy ulicach: Radiowa, Szczecińska, Pocieszka, Żytnia, Łódzka, Jesionowa",50.8766854328,20.6375706196,7474492.918,5637995.767,Miasto Kielce: pas drogowy w miejscach wskazanych w części opisowej,Małe (do 150 tys.zł),ZADANIE DOPUSZCZONE DO GŁOSOWANIA,712
Skrót rowerowy - łatwiej rowerem na Ślichowice,50.8669291230,20.6205868721,7473292.063,5636916.510,420/27 obręb 0009,Małe (do 150 tys.zł),ZADANIE DOPUSZCZONE DO GŁOSOWANIA,801
"Obiekt rekreacyjno - sportowo - szkoleniowy. ""Park moto-bike ""Komin""  Park o charakterze sportowo rekreacyjnym z wyznaczonymi trasami, torami i sekcjami offroadowymi dla motocykli i rowerów przeznaczonymi do nauki, szkolenia i zawodów",50.9025998066,20.6237411499,7473534.318,5640883.275,"wydzielona działka na przemysłowych nieużytkach o pow. około 10-11 ha wskazana poglądowo na załączonej koncepcji: obręb nr 0005, działki lub ich części 2/4, 5, 6, 9, 10, 11, 12, 15  zlokalizowane po wschodniej części ulicy Hubalczyków",,ZADANIE ODRZUCONE,
"Rozbudowa placu zabaw na terenie Przedszkola Samorządowego nr 23 w Kielcach, ul.Fabryczna 6",50.8537013575,20.5537810922,7468580.550,5635471.384,"Przedszkole Samorządowe nr 23 w Kielcach, ul.Fabryczna 6, 25-818 Kielce; nr działki 495, nr obrębu 020",Małe (do 150 tys.zł),ZADANIE DOPUSZCZONE DO GŁOSOWANIA,4562
Stworzenie miejsc parkingowych wraz z przebudową wjazdu i wymianą ogrodzenia przy Przedszkolu Samorządowym nr 2 w Kielcach,50.8905259354,20.6124463677,7472732.807,5639544.321,"Kielce, ul.Sowia 1b, nr obrębu 0005, nr działki 225 oraz 236/14",Duże (powyżej 150 tys. zł),ZADANIE DOPUSZCZONE DO GŁOSOWANIA,424
Opracowanie projektu koncepcyjnego oraz opracowanie projektu budowlanego na rozbudowę pasa drogowego o ciąg rowerowo pieszy ulic Posłowicka i Leśniówka,50.8222583009,20.6022512913,7471974.626,5631954.288,"ulica Posłowicka obręb 0027 nr 369/4 oraz 0028 nr 261, ulica Leśniówka 0029 nr 71 obręb 0030 nr 772 i nr 654/2",,ZADANIE ODRZUCONE,
"Przebudowa chodników i ciągów pieszych od ulic Jesionowej wzdłuż budynków Bukowa 6, Toporowskiego 34 oraz przed wejściem do klatek budynku Bukowa 6. Wykonanie oświetlenia ulicznego oraz parkingowego  ze zwiększeniem ilości lamp",50.8850250860,20.6385254860,7474564.661,5638923.116,"nr obrębu 0010, nr działki 686/21,  686/19, 686/18, 686/16 - osiedle Szydłówek",Małe (do 150 tys.zł),ZADANIE DOPUSZCZONE DO GŁOSOWANIA,128
Multimedialna mapa Kielc,50.8711541742,20.6274184584,7473775.327,5637384.043,"Plac Artystów,  545/2, skrzyżowanie ul.Sienkiewicza i ul.Kapitulnej",Małe (do 150 tys.zł),ZADANIE DOPUSZCZONE DO GŁOSOWANIA,926
Modernizacja Urzędu Miasta polegająca na wprowadzeniu rozwiązań ułatwiających korzystanie z obiektu,50.8718244595,20.6307148933,7474007.723,5637457.438,"Rynek 1, 25-303 Kielce, obręb ewidencyjny 0016, nr działek 196/3, 196/2,196/4, 196/5, 196/6",Małe (do 150 tys.zł),ZADANIE DOPUSZCZONE DO GŁOSOWANIA,572
Wieża widokowa na trasie szlaku Bukówka - Słowik,50.8379833244,20.6231832504,7473458.407,5633695.748,zbieg ul.Popiełuszki i Ściegiennego -Kawetczyzna,,ZADANIE ODRZUCONE,
"""Integracyjne Przedszkole Samorządowe nr 27 przyjazne dla środowiska"" - modernizacja zagospodarowania ogólnodostępnego terenu z dostosowaniem dla potrzeb osób niepełnosprawnych",50.8819689659,20.6337887049,7474229.670,5638584.804,"obręb 0010 - działki 832/11, 832/8, 832/7, 832/6, 832/9, 834/3, 25-533 Kielce, ul.Toporowskiego 11a",Małe (do 150 tys.zł),ZADANIE DOPUSZCZONE DO GŁOSOWANIA,992
Budowa miejsc postojowych na pasie dawnego terenu zielonego wzdłuż drogi ul.Piekoszowskiej poprzez ułożenie płyt ażurowych na długości 300m,50.8753145272,20.6147503853,7472886.084,5637851.402,"wzdłuż ul.Piekoszowskiej na długości od ul.Łąkowej do ul.Mielczarskiego po stronie bloków wielorodzinnych, obr. 0009, dz. 1700/12",Małe (do 150 tys.zł),ZADANIE DOPUSZCZONE DO GŁOSOWANIA,181
Projekt habitat maniek ck (osiedla na zasadach samorządności i współdecydowaniu wszystkich mieszkańców - tanie niekonwencjonalne najlepiej proekologiczne obiekty - budynki mieszkalne w użytkowaniu jak i w budowaniu),50.8843820652,20.6718492508,7476909.181,5638840.639,obszar - niewielki wycinek w okolicach (łąkach-nieużytkach) obrębu ulic: Radomska - Wschodnia-G.Morcinka - Ciekocka - Świerczyńska-Św.Pwała i/lub np. Świerczyńska-Ciekocka-G.Morcinka-Świętokrzyska,,ZADANIE ODRZUCONE,
"Projekt 3M - czyli ""Mini muzeum miejskie pod chmurką"" - kielecki historyczny park tematyczny",50.8694411787,20.6291699409,7473897.650,5637192.875,"Plac Najświętszej Marii Panny w Kielcach, działka nr 0016 (577)",Małe (do 150 tys.zł),ZADANIE DOPUSZCZONE DO GŁOSOWANIA,754
Zielony zakątek,50.8778058221,20.6392389536,7474610.941,5638119.821,"teren Zespołu Szkół Ponadpodstawowych Nr 2 w Kielcach, ul.Radiowa 1",Małe (do 150 tys.zł),ZADANIE DOPUSZCZONE DO GŁOSOWANIA,2876
Strefa aktywności ruchowej,50.8778430551,20.6393301487,7474617.379,5638123.931,"teren Zespołu Szkół Ponadpodstawowych Nr 2 w Kielcach, ul.Radiowa 1",Małe (do 150 tys.zł),ZADANIE DOPUSZCZONE DO GŁOSOWANIA,2859
Budowa chodnika ul.Aleksandrówka do skrzyżowania ul.Janowska - ul.Dobromyśl w Kielcach,50.8549696113,20.5399703979,7467608.985,5635618.424,"ul.Aleksandrówka do skrzyżowania ul.Janowska - ul.Dobromyśl w Kielcach, 639/30, 698",,ZADANIE ODRZUCONE,
Budowa chodnika ul.Łopuszańska do ul. Za Walcownią w Kielcach,50.8510479032,20.5334258080,7467145.423,5635185.078,"ul.Łopuszańska do ul.Za Walcownią w Kielcach 176/3, 639/32",,ZADANIE ODRZUCONE,
"Ulica Miła w Kielcach - odcinek pomiędzy ulicą Jagiellońską a ulicą 1-go Maja (około 200 metrów) - droga (jezdnia, chodnik, zieleńce)",50.8820231182,20.6176578999,7473094.578,5638596.581,"ulica Miła w Kielcach - jej gruntowy odcinek nie wyposażony w nawierzchnię i chodniki - pomiędzy ulicami Jagiellońską, a 1-go Maja (około 200 metrów)",,ZADANIE ODRZUCONE,
"Siłownia na powietrzu na czterech stanowiskach (po dwa urządzenia) na osiedlu ""Pod Dalnią"" w Kielcach",50.8798273626,20.5931948125,7471371.770,5638361.530,nr działki 496/4,Małe (do 150 tys.zł),ZADANIE DOPUSZCZONE DO GŁOSOWANIA,4253
"Boisko wielofunkcyjne do koszykówki i siatkówki z nawierzchni poliuretanowej z ogrodzeniem w miejscu obecnie istniejącego boiska asfaltowego do gry w kosza na osiedlu ""Pod Dalnią""",50.8797859003,20.5931639671,7471369.574,5638356.930,nr działki 496/4,Małe (do 150 tys.zł),ZADANIE DOPUSZCZONE DO GŁOSOWANIA,1552
"Modernizacja mini boiska do piłki nożnej o wymiarach 14m x 25,25 m",50.8617590084,20.6445175409,7474973.837,5636333.024,"Miejski Szkolny Ośrodek Sportowy w Kielcach ul.Prosta 57, 25-385 Kielce, nr działki 1394/11, nr obrębu 0017",Małe (do 150 tys.zł),ZADANIE DOPUSZCZONE DO GŁOSOWANIA,5441
Budowa siłowni zewnętrznej przy Zespole Szkół Ogólnokształcących nr 26 w Kielcach na osiedlu Baranówek,50.8521553619,20.6223464012,7473407.520,5635272.493,"Kielce ul. Dygasińskiego 6, obr. 0023 działki nr 628/8 i 628/9",Małe (do 150 tys.zł),ZADANIE DOPUSZCZONE DO GŁOSOWANIA,1404
Remont szatni szkolnej w Zespole Szkół Ogólnokształcących nr 26 w Kielcach,50.8523009891,20.6222766638,7473402.692,5635288.718,"budynek szkolny umiejscowiony na działce nr 628/13, obręb  0023 Kielce ul.Dygasińskiego 6",,ZADANIE ODRZUCONE,
Plac zabaw PSZCZÓŁKA w Centrum dla wszystkich dzieci,50.8673963350,20.6377208233,7474498.421,5636962.426,"Działka nr 1325 ob. nr 0017, lok.- skrzyżowanie ul.Żeromskiego, Winnickiej i Zagórskiej. Dz. Nr 1325 podzielona chodnikiem na dwa trójkąty (przy pomniku pszczółki)",Małe (do 150 tys.zł),ZADANIE DOPUSZCZONE DO GŁOSOWANIA,1817
"Budowa plenerowej siłowni zewnętrznej przy placu zabaw, dla mieszkańców Osiedla ""Ślichowice I""",50.8815780524,20.5899775028,7471146.439,5638557.523,"Proponowana lokalizacja obiektu obok budynku przy ul.Kowalczewskiego 3 w Kielcach. Obręb nr 0009, nr działki: 1834",,ZADANIE ODRZUCONE,
Przebudowa zatoki parkingowej i skrzyżowania przy budynku 50B,50.8950246092,20.6659591198,7476500.070,5640026.344,"Teren przy budynku 50B, ul. Orląt Lwowskich działka nr 844/294 obręb 0007",Małe (do 150 tys.zł),ZADANIE DOPUSZCZONE DO GŁOSOWANIA,334
Wykonanie chodnika łączącego osiedla,50.8935375063,20.6692957878,7476734.064,5639859.866,działka nr 844/224,,ZADANIE ODRZUCONE,
Budowa II cześci placu treningowego do gry w piłkę nożną,50.8941414890,20.6577086449,7475919.191,5639930.767,"Osiedle Na Stoku Kielce Obręb 0007, Nr działek- 854/5, 854/6, 854/13, 854/15",,ZADANIE ODRZUCONE,
"Siłownia zewnętrzna na wolnym powietrzu dla młodzieży, dorosłych i seniorów",50.8931331550,20.6548976898,7475720.911,5639819.523,"Tereny zielone przy ul. Przyborowskiego Kielce obręb 0007, nr działki 844/159",,ZADANIE ODRZUCONE,
"""Tereny rekreacyjno-sportowe na Prostej""",50.8637854773,20.6370958686,7474452.456,5636560.982,"25-371 Kielce, ul. Prosta 27a, nr obrębu 0017, nr działki 1360/2",Duże (powyżej 150 tys. zł),ZADANIE DOPUSZCZONE DO GŁOSOWANIA,2170
Wodny plac zabaw,50.8627510919,20.6528913975,7475563.878,5636440.576,Teren zespołu obiektów sportowych przy ul. Szczecińska 1 w Kielcach; obiekt MOSiR nr działki: 1535/6,Duże (powyżej 150 tys. zł),ZADANIE DOPUSZCZONE DO GŁOSOWANIA,1349
Plac zabaw w Niewachlowie,50.9030869589,20.5751287937,7470115.297,5640956.017,"Sąsiedztwo boiska przy ul. Miedzianej ( działka numer 361/3 o pow. 0.6448 ha, własność Gminy Kielce)",Małe (do 150 tys.zł),ZADANIE DOPUSZCZONE DO GŁOSOWANIA,103
Remont ulic: Dąbrowskiej i Nowy Świat wraz z nawierzchnią i chodnikami oraz montaż kanalizacji deszczowej,50.8793458902,20.6316697598,7474079.104,5638293.763,ul.Dąbrowskiej i Nowy Świat,,ZADANIE ODRZUCONE,
"Budowa trzech parkingów, każdy po cztery miejsca postojowe (łącznie 12 miejsc parkingowych) na długości ulicy Aleksandry Dobrowolskiej 5A i 5 B",50.8877967425,20.6517487764,7475496.576,5639226.955,"ul. Aleksandry Dobrowolskiej, obręb 0011, nr działki 275/156",Małe (do 150 tys.zł),ZADANIE DOPUSZCZONE DO GŁOSOWANIA,96
"Budowa parkingu, remont częściowy drogi i naprawa chodnika wzdłuż budynku Wojska Polskiego 5 w Kielcach",50.8653886446,20.6297680736,7473937.493,5636741.873,"Ul. Wojska Polskiego 5, obręb 0017, nr działki 1247 i 1244/36",Małe (do 150 tys.zł),ZADANIE DOPUSZCZONE DO GŁOSOWANIA,125
"""Zielona Sienkiewka""- rewitalizacja Miasta Kielce poprzez budowę błękitno- zielonej infrastruktury- ogrody deszczowe i wertykalne- projekt pilotażowy",50.8708901196,20.6287944317,7473872.029,5637354.183,"Kielce ul. Sienkiewicza 76,74,72,29,28,26,9,10/12c, obręby 00016 i 0017, działki nr 136/2, 128, 127, 543, 553, 229, 1141, 460/1 (lub inne zaproponowane przez Miasto Kielce)",Małe (do 150 tys.zł),ZADANIE DOPUSZCZONE DO GŁOSOWANIA,1055
"Zielona promenada ""biegiem"" Silnicy- ścieżki biegowe i Nordic Walking- I etap",50.8921789397,20.6341695786,7474262.098,5639720.399,"Obręby 0006, 0010, 0015, 0016, działki graniczne 274/1 i 849/1- działki miejskie wzdłuż rzeki Silnica- ok. 9 km trasy- do uzgodnienia w trakcie wytyczania, proponowane działki na urządzenia 915/98, 915/51 obręb 0006, 186/1, 186/4, 681/2, 293 obręb 0010",,ZADANIE ODRZUCONE,
Budowa boisk- do piłki ręcznej/ siatkówki i do kosza na Osiedlu Dąbrowa II w Kielcach,50.9069434014,20.6697678566,7476773.946,5641350.955,"Kielce, Osiedle Dąbrowa II, obręb 007, działka nr 2473",,ZADANIE ODRZUCONE,
Modernizacja chodników i miejsc parkingowych przy ul. Petyhorskiej,50.8542821509,20.6178081036,7473089.180,5635510.713,"Ulica Petyhorska, obręb 0023, nr działki 471/66, 471/75, 474/77, 471/77",Małe (do 150 tys.zł),ZADANIE DOPUSZCZONE DO GŁOSOWANIA,196
Modernizacja zapomnianego osiedla w centrum Kielc- ul. Józefa Bema,50.8614102505,20.6341910362,7474246.655,5636297.778,"Ulica Józefa Bema, pomiędzy ulicą Stefana Żeromskiego i Wojska Polskiego, obejmująca 11 bloków mieszkalnych, w blokach mieszka ok. 150 rodzin",,ZADANIE ODRZUCONE,
Osiedle Czarnów. Wykonianie ścieżki dla pieszych do kościoła Miłosierdzia Bożego i Hospicjum z płyt chodnikowych lub kostki ceramicznej,50.8764687986,20.6041288376,7472139.228,5637983.752,Wejście od ul. Piekoszowskiej między blokami 46 i 46A zagajnikiem do kościoła. Obecnie prowizorka z połamanych płyt chodnikowych,Duże (powyżej 150 tys. zł),ZADANIE DOPUSZCZONE DO GŁOSOWANIA,1062
Osiedle Czarnów- remont chodnika i przystosowanie go do przejazdu samochodów pogotowia ratunkowego oraz innych pojazdów uprzywilejowanych,50.8753416072,20.6037479639,7472111.750,5637858.511,Połączenie ul. Piekoszowskiej wzdłuż bloku 47 do ul. Grunwaldzkiej. Działka nr 107/19 obręb 0009,,ZADANIE ODRZUCONE,
Event Budzenie Sienkiewki w dn. 01-04.06.2017,50.8712760449,20.6275928020,7473787.667,5637397.538,"cała ulica Sienkiewicza, Plac Literatów, Plac Artystów, Rynek",,ZADANIE ODRZUCONE,
Bajkowy plac zabaw,50.8682630347,20.6192779541,7473200.690,5637065.364,"nr działek: 625,631/65,631/69 ob. 0016, Przedszkole Samorządowe nr 13 ul. Karczówkowska 8, 25-019 Kielce",Małe (do 150 tys.zł),ZADANIE DOPUSZCZONE DO GŁOSOWANIA,1203
Event Budzenie Sienkiewki styczeń 2017 ( dokładny termin w ustaleniu w oparciu o termin rozpoczęcia ferii szkolnych w woj. świętokrzyskim),50.8712828155,20.6275177002,7473782.384,5637398.317,"cała ulica Sienkiewicza, Plac Literatów, Plac Artystów, Rynek",,ZADANIE ODRZUCONE,
"Przebudowa ul. Legnickiej na odcinku od ul. Dalekiej do ul. Romualda- poszerzenie wraz z wykonaniem miejsc parkingowych oraz przebudową skrzyżowania z ul. Romualda, wymiana nawierzchni",50.8726166025,20.6458640099,7475074.419,5637540.332,ul. Legnicka od ul. Dalekiej do ul. Romualda wraz ze skrzyżowaniem z ul. Romualda,,ZADANIE ODRZUCONE,
Doposażenie siłowni zewnętrznej przy ul. Dalekiej 11 w dodatkowe urządzenia,50.8720614268,20.6458747387,7475074.879,5637478.572,Siłownia zewnętrzna przy ul. Dalekiej 11,Małe (do 150 tys.zł),ZADANIE DOPUSZCZONE DO GŁOSOWANIA,2093
"Modernizacja ul. Wiejskiej- wymiana nawierzchni, utwardzenie pobocza",50.8741873079,20.6467330456,7475136.421,5637714.759,ul. Wiejska (cała),,ZADANIE ODRZUCONE,
Sportowo - rekreacyjny plac do kształtowania sprawności ogólnej,50.8798603631,20.6096220016,7472527.821,5638358.961,"266101_1.0009.1298, Osiedle Czarnów",Małe (do 150 tys.zł),ZADANIE DOPUSZCZONE DO GŁOSOWANIA,1168
Zespół boisk sportowych wielofunkcyjnych przy ZSP nr 2 w Kielcach,50.8629627110,20.6233468652,7473484.097,5636474.305,"obręb 023, nr działki 9/1, 9/2 Al.Legionów 4, Kielce",Duże (powyżej 150 tys. zł),ZADANIE DOPUSZCZONE DO GŁOSOWANIA,5113
Boisko sportowe ogólnie dostępne dla dzieci i młodzieży wraz z placem zabaw,50.8590975471,20.6552517414,7475728.147,5636033.390,"Kielce, ul.Prosta, lokalizacja oznaczona w ewidencji gruntów miasta Kielce (obręb 0025) jako część działki nr 312",,ZADANIE ODRZUCONE,
Budowa siłowni przy Zespole Szkół Ekonomicznych im.Oskara Langego w Kielcach,50.8571809300,20.6274747849,7473771.453,5635829.686,"Kielce, ul.Langiewicza 18, działka nr 415, 0024",Małe (do 150 tys.zł),ZADANIE DOPUSZCZONE DO GŁOSOWANIA,3917
Budowa boisk przy Zespole Szkół Ekonomicznych im.Oskara Langego w Kielcach,50.8572452700,20.6277108192,7473788.107,5635836.760,"Kielce, ul.Langiewicza 18, działka nr 415, 0024",Duże (powyżej 150 tys. zł),ZADANIE DOPUSZCZONE DO GŁOSOWANIA,3954
"Modernizacja ulicy Konarskiego wraz z zatokami parkingowymi, na odcinku od ulicy Źródłowej do ulicy Zielińskiego, polegająca na poszerzeniu jezdni i chodnika oraz wymianie lamp oświetleniowych",50.8670408481,20.6448501348,7475000.077,5636920.445,"Kielce, ul.Konarskiego, na odcinku od ulicy Źródłowej do ulicy Zielińskiego, obręb nr 0017, działki nr 667/4, 668/21, 666/45, 669/12, 667/1, 667/2, 667/6.",,ZADANIE ODRZUCONE,
Budowa Wodnego Placu Zabaw,50.8795049712,20.6293684244,7473917.239,5638312.269,Dolina Silnicy,,ZADANIE ODRZUCONE,
Budowa wielofunkcyjnego boiska sportowego,50.8634011829,20.6489217281,7475284.762,5636514.211,obręb 0017 działka nr 1413/2 (ul.Szymanowskiego),Duże (powyżej 150 tys. zł),ZADANIE DOPUSZCZONE DO GŁOSOWANIA,613
Wykonanie nawierzchni asfaltowej na ul.Bobrzańskiej wraz z poboczami dla pieszych (około 200 m),50.8391486830,20.5364888906,7467352.810,5633860.099,"ul.Bobrzańska, Kielce",,ZADANIE ODRZUCONE,
"Modernizacja pomieszczeń gospodarczych w celu zorganizowania siłowni wewnętrznej, ogólnodostępnej, całorocznej wraz z zapleczem i szatnią w ZSO nr 6 w Kielcach",50.8737777110,20.6426936388,7474851.901,5637670.564,"Zespół Szkół Ogólnokształcących nr 6 w Kielcach ul.Leszczyńska 8, 25-321 Kielce",Duże (powyżej 150 tys. zł),ZADANIE DOPUSZCZONE DO GŁOSOWANIA,3070
Wykonanie ogólnodostępnego placu zabaw przy ZSO nr 6 w Kielcach,50.8738047919,20.6425005198,7474838.323,5637673.643,"Zespół Szkół Ogólnokształcących nr 6 w Kielcach ul.Leszczyńska 8, 25-321 Kielce",Małe (do 150 tys.zł),ZADANIE DOPUSZCZONE DO GŁOSOWANIA,3057
Modernizacja ogólnodostępnego zaplecza sali gimnastycznej w ZSO nr 6 w Kielcach,50.8737709407,20.6426560879,7474849.254,5637669.824,"Zespół Szkół Ogólnokształcących nr 6 w Kielcach ul.Leszczyńska 8, 25-321 Kielce",,ZADANIE ODRZUCONE,
Położenie nawierzchni asfaltowej na całej długości ulicy Barwinek,50.8492257884,20.6328392029,7474144.749,5634942.894,"cała długość ulicy Barwinek, głównie numer działki 1145/216, częściowo działki o numerach 1145/57, 1145/118, 1145/137, 1145/143, 1145/218, 1145/224",,ZADANIE ODRZUCONE,
Ogrodzenie terenu Przedszkola Samorządowego Nr 32 w Kielcach,50.8846731178,20.6491470337,7475311.863,5638880.359,"Przedszkole Samorządowe nr 32, ul.Kasprowicza 5, 25-411 Kielce, działki nr : 279/1, 279/2, 279/3, 279/4, 279/5, 279/6, 279/7, 279/8, obręb 0011",,ZADANIE ODRZUCONE,
Budowa boiska wielofunkcyjnego o nawierzchni poliuretanowej wraz z oświetleniem przy Szkole Podstawowej nr 2 w Kielcach,50.8705972882,20.6352934241,7474329.310,5637319.330,"teren oraz budynek Szkoły Podstawowej nr 2 przy ul.Kościuszki 5 w Kielcach, działka 424, 426, obręb 0017",Duże (powyżej 150 tys. zł),ZADANIE DOPUSZCZONE DO GŁOSOWANIA,1493
Wymiana nawierzchni terenów utwardzonych wokół budynku ZSO Nr 8 w Kielcach,50.8507024520,20.5540037155,7468594.212,5635137.703,"teren ZSO nr 8 przy Al.Górników Staszicowskich 22A, 25-804 Kielce, nr obrębu 0020, numery działek: 550/4, 550/7, 550/8",,ZADANIE ODRZUCONE,
Remont i rozbudowa parkingu przy Przychodni Zdrowia na ulicy Pocieszka,50.8805068310,20.6346523762,7474289.641,5638421.860,"Osiedle Sady, strefa śródmiejska miasta Kielce, ulica Pocieszka, obręb 0010, działki ew. nr 861/6,861/10,861/7 i 861/15",Duże (powyżej 150 tys. zł),ZADANIE DOPUSZCZONE DO GŁOSOWANIA,538
Budowa chodnika przy ul.Chorzowskiej,50.8333215988,20.5403727293,7467622.334,5633210.210,od ul.Stacyjnej do ul.Tarasowej oraz od ul.ks.Żrałka do przystanku kolejowego,,ZADANIE ODRZUCONE,
"Zmieńmy wygląd osiedla Czarnów - pierwszy etap rewitalizacji terenu pomiędzy ulicami Jagiellońską, Grunwaldzką i Piekoszowską do łącznika przy bloku ul.Piekoszowska 53",50.8751080416,20.6048262119,7472187.498,5637832.123,"Teren pomiędzy blokami przy ulicach Jagiellońskiej 60, Grunwaldzkiej 22, 24 i Piekoszowskiej 41,43,45,47,51,53 do łącznika przy bloku ul.Piekoszowskiej 53 nr obrębu 0015, nr działki 107/19",Duże (powyżej 150 tys. zł),ZADANIE DOPUSZCZONE DO GŁOSOWANIA,2515
"Oświetlenie osiedla w centrum miasta przy ulicy J.Bema pomiędzy ulicą S.Żeromskiego a ul.Wojska Polskiego, obejmującą 11 bloków mieszkalnych, zamieszkałych przez ponad 150 rodzin. Propozycja obejmuje umieszczenie 7 latarni ""parkowych"" na terenie osiedla",50.8611766151,20.6340622902,7474237.463,5636271.834,osiedle przy ul.Bema,Małe (do 150 tys.zł),ZADANIE DOPUSZCZONE DO GŁOSOWANIA,515
"""Nasza Mała Ojczyzna - Nasza Szkoła, Nasze Osiedle"" - modernizacja bieżni, placu apelowego i budowa placu zabaw przy Zespole Szkół Ogólnokształcących nr 29 w Kielcach",50.8685846574,20.6068593264,7472326.727,5637105.720,"budynek ZSO nr 29, ul.Zimna 16 Kielce, działka nr 484, obręb ewidencyjny 0015, nr ewidencyjny 266101_1.0015.G508, powierzchnia działki 1.2821 ha",Duże (powyżej 150 tys. zł),ZADANIE DOPUSZCZONE DO GŁOSOWANIA,452
Cyfrowi mieszkańcy Czarnowa - modernizacja szkolnej pracowni komputerowej,50.8687844010,20.6068271399,7472324.579,5637127.950,"budynek ZSO nr 29, ul.Zimna 16 Kielce, działka nr 484, obręb ewidencyjny 0015, nr ewidencyjny 266101_1.0015.G508, powierzchnia budynku 3459,57 m2",,ZADANIE ODRZUCONE,
"Modernizacja placu zabaw przy Przedszkolu Samorządowym nr 4 w Kielcach ""Więcej ruchu dla maluchów - profilaktyka otyłości wśród dzieci""",50.8663298661,20.6503218412,7475384.869,5636839.520,"Teren ogrodu przy Przedszkolu Samorządowym nr 4, ul.Kujawska 21, Kielce",Małe (do 150 tys.zł),ZADANIE DOPUSZCZONE DO GŁOSOWANIA,895
Przyjazne wejście do przedszkola 29,50.8817422026,20.6126528978,7472742.213,5638567.168,"obręb 0009, działka nr 1533/1 i 1532/57, ul.Chałubińskiego 32, 25-619 Kielce, Przedszkole Samorządowe nr 29",,ZADANIE ODRZUCONE,
"Placyk ""Kubusia"" dla naszych milusińskich",50.8815492837,20.6124383211,7472727.000,5638545.788,"obręb 0009, działka nr 1533/3, ul.Chałubińskiego 32, 25-619 Kielce, Przedszkole Samorządowe nr 29",Małe (do 150 tys.zł),ZADANIE DOPUSZCZONE DO GŁOSOWANIA,557
Zielony trójkąt aktywności dla Czarnowa,50.8752299021,20.6043326855,7472152.836,5637845.864,"nr obrębu 0015, nr działki 107/19, zielony teren pomiędzy budynkami przy Grunwaldzkiej, Piekoszowskiej i Jagiellońskiej",,ZADANIE ODRZUCONE,
BUDOWA WIELOFUNKCYJNEGO BOISKA SPORTOWEGO PRZY I LO IM. S. ŻEROMSKIEGO,50.8598662035,20.6275686622,7473779.568,5636128.354,"Teren przy I LO im. S. Żeromskiego w Kielcach, ul. Ściegiennego 15, działka nr 24/12, obręb 0024. Zewnętrzne, betonowe boisko szkolne z częścią bieżni szutrowej (od ulicy Zgody).",Duże (powyżej 150 tys. zł),ZADANIE DOPUSZCZONE DO GŁOSOWANIA,2579
Boulder Park Kielce -  budowa kompleksu kamieni wspinaczkowych.,50.8632454328,20.6198358536,7473237.088,5636507.021,Identyfikator: 266101_1.0023.2/2 Obręb: 0023 Nr działki: 2/2 Powierzchnia ewidencyjna: 25079m2 Użytki: Bz-25079m2 Adres: przy ulicy Krakowskiej,Małe (do 150 tys.zł),ZADANIE DOPUSZCZONE DO GŁOSOWANIA,750
Obserwatorium Astronomiczne i Planetarium w Kielcach,50.8624599023,20.5859622359,7470851.961,5636432.460,"obr. 0021, działka 403/18, ul. Krzemionkowa 1, przy Zespole Szkół Ogólnokształcących nr 15 z Oddziałami Integracyjnymi w Kielcach (lub inna lokalizacja z małym zanieczyszczeniem sztucznym światłem)",Duże (powyżej 150 tys. zł),ZADANIE DOPUSZCZONE DO GŁOSOWANIA,3852
"Modernizacja: 1. placu zabaw; 2. istniejącego chodnika; 3; wejscie od strony Romualda; na terenie  Przedszkola Samorządowego nr 33 w Kielcach, ul. Romualda 6",50.8730702169,20.6451344490,7475023.312,5637591.037,Teren Przedszkola Samorzadowego nr 33 przy ulicy Romualda 6 w Kielcach- działka 166/8; 166/10; 166/12;,Małe (do 150 tys.zł),ZADANIE DOPUSZCZONE DO GŁOSOWANIA,2077
Plac zabaw przy ul. Krakowskiej 360,50.8352722285,20.5372814834,7467405.936,5633428.548,ul. Krakowska 360,Małe (do 150 tys.zł),ZADANIE DOPUSZCZONE DO GŁOSOWANIA,506
Budowa parkingu przy Przedszkolu Samorządowym nr 3 w Kielcach będącego jednocześnie drogą pożarową oraz dojazdem do placówki.,50.8483130109,20.6280943751,7473810.111,5634843.031,"obręb 024, działka nr 1140/2 , Kielce Barwinek 33",Małe (do 150 tys.zł),ZADANIE DOPUSZCZONE DO GŁOSOWANIA,247
Plac Sportów Miejskich,50.8627155398,20.6147369743,7472877.830,5636449.937,obręb 0023; działka 1/13; skrzyżowanie ulic krakowska oraz pakosz. obok skateparku.,Małe (do 150 tys.zł),ZADANIE DOPUSZCZONE DO GŁOSOWANIA,692
Przebudowa ulicy Biskupa Czesława Kaczmarka wraz z przeorganizowaniem miejsc postojowych z równoległych na prostopadłe lub skośne - od strony skweru Szarych Szeregów,50.8649654273,20.6190687418,7473184.072,5636698.625,"Osiedle Chęcińska, strefa śródmiejska miasta Kielce, ulica Chęcińska, obręb 0016, część działki ew. nr 676 i 690/2",Duże (powyżej 150 tys. zł),ZADANIE DOPUSZCZONE DO GŁOSOWANIA,944
Street Workout Park,50.8692211253,20.6220835447,7473398.723,5637170.925,nr obrębu: 0016; nr działki: 519/4;  adres: ul. Ignacego Paderewskiego (przy rondzie Giedroycia),Małe (do 150 tys.zł),ZADANIE DOPUSZCZONE DO GŁOSOWANIA,798
Modernizacja przedszkolnego  placu zabaw- Teren Przedszkola Samorządowego nr 9 w Kielcach- Osiedle Uroczysko,50.8957605299,20.6439515948,7474952.229,5640115.441,"Teren Przedszkola Samorządowego nr 9 w Kielcach- Osiedle Uroczysko. Obręb 0006 nr działek 971/1 i 971/2, ul Orkana 32",Małe (do 150 tys.zł),ZADANIE DOPUSZCZONE DO GŁOSOWANIA,217
Poprawa bezpieczeństwa dzieci i młodzieży - budowa miejsc parkingowych na terenie ZSO nr 11 - ul. Łanowa 68 –  dzielnica Dyminy.,50.8228005144,20.6251305342,7473586.999,5632006.176,"Nr obrębu: 0030 Nr działki:91/3 Adres: Kielce, ul. Łanowa 68   Działka należy do zasobów gminy Kielce we władaniu innych podmiotów.  Lokalizacja parkingu: plac po prawej stronie od istniejącego wjazdu na teren szkoły przy ul. Kalinowej",Małe (do 150 tys.zł),ZADANIE DOPUSZCZONE DO GŁOSOWANIA,427
"""Rewolucje na kółkach"" czyli budowa toru na Osiedlu Słoneczne Wzgórze do jazdy na rowerze, rolkach, hulajnodze, deskorolkach.",50.8887967319,20.6538677216,7475646.189,5639337.490,"Działka 275/133, 275/134, obręb 0011, pomiędzy ul. Krzyżanowskiej 2 a Ćwiklińska 5 a",Małe (do 150 tys.zł),ZADANIE DOPUSZCZONE DO GŁOSOWANIA,1876
"""Obudź w sobie zdrowego ducha"" - budowa siłowni zewnętrznej na Osiedlu Słoneczne Wzgórze w sąsiedztwie Parku Dygasińskiego",50.8866765935,20.6488198042,7475289.897,5639103.329,Działka 275/139 w okolicach bloku przy ul. Zapolskiej 27 a 29 od strony Parku im. Dygasińskiego,Małe (do 150 tys.zł),ZADANIE DOPUSZCZONE DO GŁOSOWANIA,1972
"Budowa placu o funkcji rekreacyjno - wypoczynkowej przy ulicy Szkolnej wyposażonego w urządzenia do ćwiczeń, ławki, stoliki do gier planszowych oraz zieleń",50.8705312740,20.6067681313,7472321.460,5637322.289,"Osiedle Jagiellońskie, strefa śródmiejska miasta Kielce, ul.Szkolna, obręb 0015, działki ew. nr  319/185, 319/73, 319/160",Małe (do 150 tys.zł),ZADANIE DOPUSZCZONE DO GŁOSOWANIA,822
Budowa placu o funkcji wypoczynkowo-rekreacyjno-sportowej przy ulicy Chęcińskiej wyposażonego w boisko o nawierzchni sztucznej do gry w piłkę koszykową i siatkową,50.8664500566,20.6190392375,7473182.847,5636863.781,"Osiedle Chęcińska, strefa śródmiejska miasta Kielce, ulica Chęcińska obręb 0016, część działki ew. nr 698/63",Małe (do 150 tys.zł),ZADANIE DOPUSZCZONE DO GŁOSOWANIA,1565
Budowa monitoringu miejskiego na Osiedlu Podkarczówka,50.8577430555,20.5760997534,7470154.640,5635911.713,"Osiedle Podkarczówka, strefa podmiejska miasta Kielce, ul.Podklasztorna obręb 0021, działka ew. nr 579",Małe (do 150 tys.zł),ZADANIE DOPUSZCZONE DO GŁOSOWANIA,5424
Remont ulicy Przemysłowej na odcinku od ul.Skrzetlewskiej do ul.Sowiej,50.8910555122,20.6122398376,7472718.586,5639603.306,"Osiedle Herby, strefa podmiejska miasta Kielce, ul.Przemysłowa, obręb 0009, działki ew. nr 270/1, 270/2, 236/4, 236/5, 236/6, 191/1 i 191/2",,ZADANIE ODRZUCONE,
"Budowa placu o funkcji rekreacyjno - wypoczynkowej przy ul.Szczygla wyposażonego w urządzenia do ćwiczeń, ławki, stoliki do gier planszowych oraz zieleń",50.8888288801,20.6147289276,7472892.416,5639354.705,"Osiedle Herby, strefa podmiejska miasta Kielce, ulica Sczygla obręb 0009, działki ew. nr 294/17, 294/18 i 295/4",Małe (do 150 tys.zł),ZADANIE DOPUSZCZONE DO GŁOSOWANIA,718
Osiedlowe miejsce sportu dla dzieci i młodzieży,50.8620705181,20.6211233139,7473327.053,5636375.861,"budynek ZSO nr 10 Gagarina 3 Kielce działka nr 8, obręb ewidencyjny 0023, nr ewidencyjny 266101_1.0023.8",Duże (powyżej 150 tys. zł),ZADANIE DOPUSZCZONE DO GŁOSOWANIA,4609
Biblioteka przyszłości,50.8777855131,20.6392872334,7474614.328,5638117.545,"Zespół Szkół Ponadpodstawowych Nr 2 w Kielcach, ul. Radiowa 1",,ZADANIE ODRZUCONE,
"PRZEJŚCIE ŁĄCZĄCE UL.MAZURSKĄ Z UL.KONARSKIEGO PRZEZ TEREN SZKOŁY, OTWARTE STALE LUB W GODZ.6-22",50.8680937587,20.6476879120,7475200.393,5637036.611,SKOMUNIKOWANIE ULIC MAZURSKIEJ Z KONARSKIEGO W  CENTRUM OSIEDLA KSM PÓŁNOC PRZY HALI SPOROTOWEJ W BLISKOŚCI BASENU MOSiR I MOPR W OBR. 0017 NA DZIAŁCE NR EW. 711(DROGA) PRZEZ DZ.723/1(SZKOŁA) DO DZ.762/1(DR),,ZADANIE ODRZUCONE,
Kompleks sportowo - rekreacyjny osiedla Ślichowice,50.8873872652,20.5792057514,7470392.109,5639207.986,dz. nr 256 -  teren Szkoły Podstawowej nr  25 przy ul.Jurajskiej 7,Duże (powyżej 150 tys. zł),ZADANIE DOPUSZCZONE DO GŁOSOWANIA,3773
"Plac ""Park Pokoleń"" przy ul. Grochowej",50.8761370754,20.6129693985,7472761.217,5637943.555,"Dz. nr 1726/10 - teren zielony pomiędzy blokami Grochowa 23, a Grochowa 25",Małe (do 150 tys.zł),ZADANIE DOPUSZCZONE DO GŁOSOWANIA,3608
Strefa Aktywna osiedla Barwinek (obok Klubu Seniora),50.8482537390,20.6297761202,7473928.507,5634835.843,"dz.nr 1145/174 - utwardzona, asfaltowa powierzchnia placów obok budynku Barwinek 3A (w centrum osiedla)",Małe (do 150 tys.zł),ZADANIE DOPUSZCZONE DO GŁOSOWANIA,3393
Parking samochodowy przy ul.Miłej na ok. 30 miejsc postojowych,50.8828590858,20.6146591902,7472884.044,5638690.668,"obręb nr 0009, działka nr 1461/22, skrzyżowanie ulic Jagiellońskiej i Miłej",,ZADANIE ODRZUCONE,
Modernizacja/budowa kompleksu boisk wielofunkcyjnych na terenie Szkoły Podstawowej nr 28 w Kielcach,50.8636855949,20.6490504742,7475293.975,5636545.805,"nr obrębu 0017, nr działki 1411/2; Adres: 25-361 Kielce ul.Szymanowskiego 5; lokalizacja (teren obecnych boisk przy szkole)",Duże (powyżej 150 tys. zł),ZADANIE DOPUSZCZONE DO GŁOSOWANIA,4204
"Budowa placu zabaw przy Szkole Podstawowej nr 34 im.Adama Mickiewicza, ul.Naruszewicza 25, 25-628 Kielce",50.8798231317,20.5950200558,7471500.215,5638360.353,"teren przy SP nr 34 w Kielcach, działka nr ewid.505, obręb 0009",Małe (do 150 tys.zł),ZADANIE DOPUSZCZONE DO GŁOSOWANIA,4776
PARK ZABAW DLA PSÓW,50.8879456424,20.6342661381,7474266.559,5639249.466,obręb 0006 dz.915/11 zalew kielecki skrzyzowanie ul. Klonowej i Jesionowej,Małe (do 150 tys.zł),ZADANIE DOPUSZCZONE DO GŁOSOWANIA,4287
"""ORLIK POD DACHEM""  - budowa zadaszenia pneumatycznego na boisku wielofunkcyjnym ORLIK 2012 przy Szkole Podstawowej nr 27",50.8909336932,20.6433320045,7474906.048,5639578.728,"boisko ORLIK 2012 przy Szkole Podstawowej nr 27 im. K.K.Baczyńskiego, 25-549 Kielce, ul.Toporowskiego 96, nr obrębu - 0006; nr działki - 967/10 i 967/11 o wymiarach 66,00m x 32,10m =2.118,60m2",Duże (powyżej 150 tys. zł),ZADANIE DOPUSZCZONE DO GŁOSOWANIA,7873
Modernizacja placu zabaw przy Przedszkolu Samorządowym nr 22 w Kielcach,50.8786384806,20.6101101637,7472561.457,5638222.861,"plac zabaw przy Przedszkolu Samorządowym nr 22 w Kielcach ul.Bolesława Chrobrego 110, nr działki 1175",Małe (do 150 tys.zł),ZADANIE DOPUSZCZONE DO GŁOSOWANIA,1993
Rewitalizacja chodników i części jezdni,50.8744784242,20.6171107292,7473051.722,5637757.532,"chodnik na ul. Mielczarskiego od ul. Piekoszowskiej do ""Społem"" oraz chodnik i około 40 m jezdni od ul. Mielczarskiego do bloku 8/10 ul. Owsianej",,ZADANIE ODRZUCONE,
Budowa boiska wielofunkcyjnego zewnętrznego z ogrodzeniem przy Szkole Podstawowej nr 34 w Kielcach,50.8801514440,20.5955135822,7471535.146,5638396.683,"obręb ewidencyjny 0009, nr działki 505, Teren Szkoły Podstawowej nr 34 w Kielcach, ul. Naruszewicza 25, Kielce",Duże (powyżej 150 tys. zł),ZADANIE DOPUSZCZONE DO GŁOSOWANIA,5165
